[
  {"id":"3530597","name":"Mexico City","region":"CDMX","coordinates":[-99.1332,19.4326],"population":9209944},
  {"id":"3531673","name":"Oaxaca","region":"Oaxaca","coordinates":[-96.7266,17.0732],"population":278045},
  {"id":"3981609","name":"San Miguel de Allende","region":"Guanajuato","coordinates":[-100.7436,20.9153],"population":160000},
  {"id":"3523349","name":"Tulum","region":"Quintana Roo","coordinates":[-87.4654,20.2114],"population":35281},
  {"id":"3522540","name":"Cancún","region":"Quintana Roo","coordinates":[-86.8515,21.1619],"population":888797},
  {"id":"3981791","name":"Guanajuato","region":"Guanajuato","coordinates":[-101.2574,21.0190],"population":171709},
  {"id":"3530954","name":"Puebla","region":"Puebla","coordinates":[-98.2063,19.0414],"population":1434062},
  {"id":"3996322","name":"Puerto Vallarta","region":"Jalisco","coordinates":[-105.2307,20.6534],"population":275640},
  {"id":"3530840","name":"Guadalajara","region":"Jalisco","coordinates":[-103.3496,20.6597],"population":1495182},
  {"id":"3526536","name":"Mérida","region":"Yucatán","coordinates":[-89.6237,20.9674],"population":892363},
  {"id":"3985710","name":"Playa del Carmen","region":"Quintana Roo","coordinates":[-87.0739,20.6296],"population":307068},
  {"id":"3533462","name":"Taxco","region":"Guerrero","coordinates":[-99.6050,18.5573],"population":105512},
  {"id":"3996007","name":"Cabo San Lucas","region":"Baja California Sur","coordinates":[-109.9167,22.8905],"population":81111},
  {"id":"3539168","name":"Chichén Itzá (Valladolid)","region":"Yucatán","coordinates":[-88.2023,20.6890],"population":50000},
  {"id":"3520545","name":"Zihuatanejo","region":"Guerrero","coordinates":[-101.5468,17.6382],"population":117000}
]
